City_ID,City,Lat,Lng,Max Temp,Humidity,Cloudiness,Wind Speed,Country,Date
0,iqaluit,63.7506,-68.5145,-1.15,58,100,1.03,CA,1697597005
1,puerto natales,-51.7236,-72.4875,4.9,91,76,1.71,CL,1697597006
2,mil'kovo,55.6078,37.7956,4.08,84,33,5.63,RU,1697597006
3,papatowai,-46.5619,169.4708,15.13,59,82,7.99,NZ,1697597006
4,madang,-5.2246,145.7966,30.41,65,37,3.36,PG,1697597006
5,port elizabeth,-33.918,25.5701,18.51,77,0,2.68,ZA,1697597007
6,taoudenni,22.6783,-3.9836,29.49,15,0,3.26,ML,1697597007
7,klyuchi,52.2667,79.1667,9.37,43,11,3.26,RU,1697597007
8,wailua homesteads,22.0669,-159.378,28.24,71,100,2.57,US,1697597007
9,waitangi,-43.9535,-176.5597,12.12,74,29,4.02,NZ,1697597007
10,callao,-12.0667,-77.15,20.95,82,75,6.17,PE,1697597008
11,isafjordur,66.0755,-23.124,6.77,93,100,7.12,IS,1697597008
12,thompson,55.7435,-97.8558,5.09,87,20,1.54,CA,1697596939
13,kirensk,57.7853,108.1119,0.57,95,99,0.89,RU,1697597008
14,tiksi,71.6872,128.8694,-14.52,100,100,1.56,RU,1697597010
15,west island,-12.1568,96.8225,26.99,78,40,6.69,CC,1697597010
16,haiku-pauwela,20.9219,-156.3051,30.01,52,20,2.06,US,1697597010
17,cidreira,-30.1811,-50.2056,15.07,76,90,4.6,BR,1697597010
18,rundu,-17.9333,19.7667,17.93,14,75,2.72,NA,1697597011
19,grytviken,-54.2811,-36.5092,2.01,88,86,5.39,GS,1697597011
20,alofi,-19.0595,-169.9187,24.94,57,75,10.8,NU,1697597011
21,udachny,66.4167,112.4,-9.4,86,94,6.94,RU,1697597011
22,koungou,-12.7336,45.2042,26.84,78,75,4.12,YT,1697597012
23,albany,42.6001,-73.9662,11.36,89,19,1.85,US,1697596505
24,saipan,15.1355,145.701,30.39,79,0,6.17,MP,1697597012
25,hermanus,-34.4187,19.2345,15.21,92,0,2.86,ZA,1697597012
26,port-aux-francais,-49.35,70.2167,2.5,75,99,5.89,TF,1697597012
27,sydney,-33.8679,151.2073,21.86,52,20,5.14,AU,1697596558
28,kota belud,6.351,116.4305,31.93,56,32,2.12,MY,1697597013
29,adamstown,-25.066,-130.1015,22.15,88,100,3.04,PN,1697597013
30,dwarka,22.2394,68.9678,27.04,73,0,3.53,IN,1697597013
31,dudinka,69.4058,86.1778,-0.18,98,100,2.68,RU,1697597013
32,longyearbyen,78.2186,15.6401,-7.09,73,40,6.17,SJ,1697596760
33,nyagan,62.1406,65.3936,8.01,82,21,5.06,RU,1697597014
34,cabo san lucas,22.8909,-109.9124,30.17,58,0,2.06,MX,1697596353
35,hadibu,12.65,54.0333,27.1,75,27,2.04,YE,1697597014
36,ataq,14.5377,46.8319,19.42,68,1,3.04,YE,1697597015
37,atafu village,-8.5421,-172.5159,28.57,72,100,2.38,TK,1697597015
38,bandar,2.05,99.75,29.95,65,38,1.18,ID,1697597015
39,kodiak,57.79,-152.4072,8.73,81,100,4.63,US,1697597015
40,dongcun,36.7767,121.1597,20.84,72,100,5.44,CN,1697597015
41,ilulissat,69.2167,-51.1,-8.99,67,75,3.6,GL,1697596716
42,blackmans bay,-43.0167,147.3167,19.85,46,18,0.45,AU,1697597016
43,bethel,41.3712,-73.414,11.25,84,75,1.54,US,1697597016
44,sola,-13.8833,167.55,25.92,77,89,5.85,VU,1697597016
45,codrington,-38.2667,141.9667,22.47,39,20,2.25,AU,1697597016
46,mejit,10.2753,170.8646,28.24,77,52,6.0,MH,1697597017
47,invercargill,-46.4,168.35,13.9,75,100,8.49,NZ,1697597017
48,abqaiq,25.9371,49.6776,24.41,60,3,2.87,SA,1697597017
49,kupang,-10.1667,123.5833,35.32,28,20,6.69,ID,1697597018
50,khandyga,62.6667,135.6,-3.1,66,100,0.82,RU,1697597018
51,lake charles,30.2131,-93.2044,15.12,81,0,1.54,US,1697597018
52,puerto colombia,10.9878,-74.9547,28.05,76,85,4.98,CO,1697597018
53,chui,-33.6971,-53.4616,8.62,85,3,3.53,UY,1697597019
54,katsuura,35.1333,140.3,21.2,72,81,2.59,JP,1697597019
55,remire-montjoly,4.9167,-52.2667,25.02,94,0,0.0,GF,1697597019
56,avarua,-21.2078,-159.775,24.03,64,20,6.69,CK,1697597019
57,hailey,43.5196,-114.3153,12.72,54,0,1.34,US,1697597020
58,saldanha,-33.0117,17.9442,12.03,95,5,5.96,ZA,1697597020
59,myeik,12.4333,98.6,26.06,87,100,1.66,MM,1697597020
60,arraial do cabo,-22.9661,-42.0278,23.92,88,0,3.09,BR,1697597020
61,whiteville,34.3388,-78.7031,14.49,85,96,0.0,US,1697597021
62,zhigalovo,54.8097,105.1578,2.82,95,60,2.68,RU,1697597021
63,flying fish cove,-10.4217,105.6791,26.82,83,100,4.63,CX,1697597021
64,dakhla,23.6848,-15.958,21.74,84,12,5.18,EH,1697597021
65,lihue,21.9789,-159.3672,28.58,70,100,2.57,US,1697597022
66,kerikeri,-35.2268,173.9474,17.75,80,100,3.87,NZ,1697597022
67,olhao,37.0286,-7.8411,20.94,83,75,6.69,PT,1697597022
68,port mathurin,-19.6833,63.4167,23.74,80,33,4.28,MU,1697597022
69,happy valley-goose bay,53.3168,-60.3315,6.17,75,75,3.6,CA,1697597023
70,stanley,54.868,-1.6985,10.01,89,40,4.12,GB,1697597023
71,edinburgh of the seven seas,-37.0676,-12.3116,12.63,74,100,7.64,SH,1697597023
72,kingston,17.997,-76.7936,29.53,88,20,3.09,JM,1697596792
73,bhongir,17.5108,78.8889,27.61,61,13,2.08,IN,1697597024
74,mossel bay,-34.1831,22.146,15.96,85,0,3.34,ZA,1697597024
75,kan'onjicho,34.1167,133.65,23.64,65,0,1.71,JP,1697597024
76,saint-philippe,-21.3585,55.7679,22.77,76,100,3.11,RE,1697597024
77,ushuaia,-54.8,-68.3,11.81,47,40,8.23,AR,1697597025
78,chinde,26.8418,88.0763,18.7,65,6,1.14,NP,1697597025
79,san patricio,28.017,-97.5169,20.91,47,0,3.27,US,1697597025
80,olonkinbyen,70.9221,-8.7187,1.2,78,100,2.9,SJ,1697597025
81,fisterra,42.9049,-9.2629,17.79,87,100,9.28,ES,1697597026
82,holualoa,19.6228,-155.9522,26.91,74,0,2.06,US,1697597026
83,tucuma,-0.1833,-50.05,25.62,88,88,2.94,BR,1697597026
84,obo,5.3998,26.4869,19.7,97,92,1.11,CF,1697597026
85,bredasdorp,-34.5322,20.0403,13.93,95,0,1.43,ZA,1697597024
86,gaiman,-43.2897,-65.4929,11.89,49,77,4.42,AR,1697597027
87,ondjiva,-17.0667,15.7333,17.8,25,10,1.99,AO,1697597027
88,ujae,8.9322,165.7642,28.56,74,38,4.72,MH,1697597027
89,bubaque,11.2833,-15.8333,27.75,76,58,4.22,GW,1697597028
90,karratha,-20.7377,116.8463,35.83,13,0,2.02,AU,1697597028
91,saint-pol-de-leon,48.6833,-3.9833,18.42,84,100,9.74,FR,1697597028
92,dietenhofen,49.4,10.6833,1.95,85,0,3.09,DE,1697597028
93,college,64.8569,-147.8028,1.97,83,75,1.54,US,1697597028
94,chonchi,-42.6128,-73.8092,8.4,94,74,1.28,CL,1697597029
95,kavaratti,10.5669,72.642,28.12,72,81,1.18,IN,1697597029
96,ola,59.5833,151.2833,-1.99,34,0,5.02,RU,1697597029
97,punta arenas,-53.15,-70.9167,9.06,71,75,7.72,CL,1697596919
98,aqadyr,48.2553,72.8483,6.95,39,6,2.92,KZ,1697597030
99,hotan,37.0997,79.9269,13.35,26,90,3.14,CN,1697597030
100,tsiombe,-25.3,45.4833,22.03,92,100,2.24,MG,1697597030
101,aasiaat,68.7098,-52.8699,-16.04,87,73,1.89,GL,1697597030
102,visby,57.6409,18.296,9.12,87,40,5.14,SE,1697597031
103,tateyama,34.9833,139.8667,21.89,68,16,3.13,JP,1697597031
104,kuanda,56.3161,116.0806,1.44,65,42,2.23,RU,1697597031
105,sinjai,-5.1241,120.253,30.84,55,98,5.56,ID,1697597031
106,brokopondo,4.75,-55.1667,24.87,88,74,3.01,SR,1697597032
107,aksu,41.1231,80.2644,12.6,34,44,2.43,CN,1697597032
108,hamilton,39.1834,-84.5333,9.85,86,75,2.57,US,1697596934
109,palmer,42.1584,-72.3287,11.72,83,75,0.0,US,1697597032
110,anadyr,64.75,177.4833,-5.72,62,20,8.0,RU,1697597033
111,port blair,11.6667,92.75,28.02,83,40,1.03,IN,1697597033
112,chibougamau,49.9168,-74.3659,0.79,93,0,0.0,CA,1697597033
113,geraldton,-28.7667,114.6,23.23,56,1,4.63,AU,1697597033
114,newman,37.3138,-121.0208,25.13,62,0,0.89,US,1697597034
115,zaozersk,69.4005,32.4476,0.31,79,100,3.5,RU,1697597034
116,tha kham,9.1107,99.2321,28.34,87,40,3.13,TH,1697597034
117,pulsano,40.3821,17.3564,16.01,83,88,1.94,IT,1697597034
118,hawaiian paradise park,19.5933,-154.9731,26.73,81,75,3.09,US,1697597034
119,melitopol,46.8422,35.3731,5.14,64,61,1.67,UA,1697597035
120,port alfred,-33.5906,26.891,16.69,78,0,3.1,ZA,1697597035
121,magadan,59.5667,150.8,-2.32,75,0,4.92,RU,1697597035
122,tura,25.5198,90.2201,25.37,69,0,0.22,IN,1697597031
123,bela,25.9333,81.9833,24.91,58,3,2.55,IN,1697597036
124,yellowknife,62.456,-114.3525,2.45,100,100,4.12,CA,1697597036
125,afif,23.9065,42.9172,22.01,18,18,5.12,SA,1697597036
126,gangtok,27.3333,88.6167,17.38,57,28,1.63,IN,1697597036
127,sur,22.5667,59.5289,28.49,54,0,4.01,OM,1697597037
128,enewetak,11.3474,162.3373,28.6,76,42,7.08,MH,1697597037
129,tshabong,-26.05,22.45,18.12,43,0,6.77,BW,1697597037
130,ribeira grande,38.5167,-28.7,22.1,93,100,7.6,PT,1697597023
131,mogocha,53.7333,119.7667,1.53,72,100,2.24,RU,1697597038
132,mahdia,35.5047,11.0622,21.97,28,11,5.04,TN,1697597038
133,qaqortoq,60.7167,-46.0333,-1.18,56,7,1.88,GL,1697597038
134,badger,64.8,-147.5333,1.93,83,100,1.54,US,1697597038
135,zhangzhou,24.5133,117.6556,24.96,66,100,0.87,CN,1697597039
136,yulinshi,38.2906,109.7494,12.94,55,100,3.36,CN,1697596757
137,richards bay,-28.783,32.0377,18.62,86,100,1.77,ZA,1697597039
138,la cruz,23.9167,-106.9,26.79,88,81,0.83,MX,1697597039
139,sabinas,27.85,-101.1167,19.73,41,0,4.11,MX,1697596851
140,nouadhibou,20.931,-17.0347,23.19,73,10,7.39,MR,1697597040
141,tyukhtet,56.5389,89.3011,7.7,86,100,2.85,RU,1697597040
142,margaret river,-33.95,115.0667,17.93,62,26,5.34,AU,1697597041
143,pontal do parana,-25.6533,-48.5128,19.97,97,100,0.91,BR,1697597041
144,loreto,22.2667,-101.9667,14.34,54,96,5.03,MX,1697597041
145,vernon,50.2581,-119.2691,13.75,60,100,1.34,CA,1697597041
146,padang,-0.9492,100.3543,27.03,70,100,1.18,ID,1697597042
147,tevriz,57.509,72.4042,8.93,76,21,3.4,RU,1697597042
148,qaryat suluq,31.6682,20.2521,19.77,66,0,2.2,LY,1697597042
149,usinsk,65.9939,57.5281,2.26,99,100,7.15,RU,1697597042
150,san antonio de pale,-1.4014,5.6325,25.17,82,93,2.89,GQ,1697597043
151,copiapo,-27.3667,-70.3333,12.83,66,72,1.29,CL,1697596768
152,gongzhuling,43.5008,124.8198,10.19,67,100,3.31,CN,1697597043
153,mancio lima,-7.6142,-72.8958,24.04,94,0,0.0,BR,1697597043
154,faya-largeau,17.9257,19.1043,26.93,22,10,8.85,TD,1697597044
155,bodo,67.28,14.405,1.02,93,75,1.54,NO,1697597044
156,kariong,-33.44,151.3011,21.14,48,0,1.34,AU,1697597044
157,afaahiti,-17.75,-149.2833,26.93,85,91,7.3,PF,1697597044
158,goundam,16.4145,-3.6708,31.88,28,64,1.65,ML,1697597044
159,knysna,-34.0363,23.0471,16.12,79,0,2.61,ZA,1697597045
160,nishinoomote,30.7333,131.0,24.31,68,20,2.06,JP,1697597045
161,vorgashor,67.5833,63.95,2.04,96,100,4.41,RU,1697597045
162,puerto deseado,-47.7503,-65.8938,11.2,52,100,10.16,AR,1697597045
163,marsh harbour,26.5412,-77.0636,24.28,58,68,4.16,BS,1697597046
164,horodnya,51.8909,31.5974,3.82,70,96,4.8,UA,1697597046
165,st. john's,47.5649,-52.7093,4.82,90,100,0.89,CA,1697597046
166,cannonvale,-20.2833,148.7,23.66,67,52,8.67,AU,1697597046
167,uturoa,-16.7333,-151.4333,25.87,83,75,5.95,PF,1697597047
168,grand island,40.925,-98.342,18.97,47,0,7.72,US,1697597047
169,vila franca do campo,37.7167,-25.4333,21.23,99,100,7.01,PT,1697597047
170,bilibino,68.0546,166.4372,-15.02,97,99,1.62,RU,1697597047
171,whitehorse,60.7161,-135.0538,8.34,90,100,1.03,CA,1697597048
172,sitka,57.0531,-135.33,13.94,58,100,7.2,US,1697597048
173,georgetown,5.4112,100.3354,30.53,80,20,2.24,MY,1697597004
174,ziro,27.6333,93.8333,15.41,60,4,0.49,IN,1697597048
175,constantia,44.1833,28.65,10.39,66,100,3.19,RO,1697597046
176,luanda,-8.8368,13.2343,25.0,83,75,2.57,AO,1697597049
177,the bottom,17.6259,-63.2492,26.31,68,16,5.92,BQ,1697596922
178,arawa,-6.2132,155.5367,30.42,67,88,1.6,PG,1697597049
179,mumbwa,-14.9783,27.0619,19.13,91,84,2.58,ZM,1697597049
180,port lincoln,-34.7333,135.8667,21.96,45,0,3.26,AU,1697597050
181,sao paulo de olivenca,-3.3783,-68.8725,24.6,82,52,1.16,BR,1697597050
182,fonte boa,-2.4959,-66.2662,24.78,80,39,0.63,BR,1697597051
183,puerto baquerizo moreno,-0.9,-89.6,23.46,84,71,4.79,EC,1697596939
184,jamestown,42.097,-79.2353,9.77,100,100,2.57,US,1697596818
185,sisimiut,66.9395,-53.6735,-8.1,82,30,5.03,GL,1697597051
186,buka,40.8108,69.1986,15.95,29,100,1.03,UZ,1697597052
187,camarinas,43.1311,-9.1817,17.88,89,100,9.43,ES,1697597052
188,saint joseph,39.7686,-94.8466,13.09,61,0,2.68,US,1697597038
189,venev,54.3553,38.2684,1.26,87,12,6.23,RU,1697597052
190,fale old settlement,-9.3852,-171.2468,28.4,73,18,2.95,TK,1697597052
191,umm kaddadah,13.6017,26.6876,25.53,18,81,7.02,SD,1697597053
192,napili-honokowai,20.9708,-156.6705,30.64,81,3,3.66,US,1697597053
193,walvis bay,-22.9575,14.5053,15.05,88,5,3.09,NA,1697597053
194,queenstown,-31.8976,26.8753,11.58,70,0,1.57,ZA,1697596801
195,puerto madero,14.7208,-92.4215,25.11,100,40,0.0,MX,1697597054
196,coesfeld,51.9333,7.15,5.77,90,100,4.28,DE,1697597054
197,hobyo,5.3505,48.5268,27.62,79,24,4.57,SO,1697597054
198,pordic,48.5705,-2.8178,16.24,86,100,2.68,FR,1697597054
199,quesnel,52.9999,-122.5029,12.28,54,100,7.2,CA,1697596809
200,nuku'alofa,-21.1333,-175.2,25.19,65,20,8.23,TO,1697597055
201,vila velha,-20.3297,-40.2925,24.97,87,0,6.17,BR,1697597055
202,fort st. john,56.2499,-120.8529,8.94,61,75,4.12,CA,1697597055
203,boa vista,2.8197,-60.6733,26.99,78,20,3.09,BR,1697596765
204,colonia,50.9333,6.95,7.75,79,0,1.54,DE,1697596863
205,katabu,-4.9333,122.5167,33.66,38,7,4.14,ID,1697597056
206,summerside,46.3959,-63.7876,6.19,93,70,1.54,CA,1697596857
207,zilair,52.2332,57.4392,3.01,79,70,3.56,RU,1697597056
208,beau vallon,-20.4189,57.6953,24.56,94,75,1.03,MU,1697597057
209,saudarkrokur,65.7461,-19.6394,5.78,90,99,4.72,IS,1697597057
210,anna regina,7.2644,-58.5077,27.16,81,26,2.69,GY,1697597057
211,kostomuksha,64.571,30.5767,-1.65,89,68,3.58,RU,1697597057
212,mili,6.0815,171.735,28.47,68,67,0.24,MH,1697597057
213,pingliang,35.5392,106.6861,8.32,75,100,2.51,CN,1697597058
214,manfredonia,41.6259,15.9094,12.26,94,20,1.54,IT,1697597058
215,talnakh,69.4865,88.3972,-0.44,96,100,7.45,RU,1697597058
216,bafq,31.6128,55.4107,19.56,31,0,0.42,IR,1697597059
217,tabas,33.5959,56.9244,18.12,36,6,0.0,IR,1697597059
218,clifton springs,-38.15,144.5667,24.64,56,0,4.63,AU,1697597059
219,vadso,70.0744,29.7487,1.49,80,40,5.66,NO,1697597060
220,mersa matruh,31.3525,27.2453,22.11,78,40,2.57,EG,1697597060
221,petrovsk-zabaykal'skiy,51.273,108.843,2.94,74,99,0.45,RU,1697597060
222,fort bragg,35.139,-79.006,15.75,85,100,0.0,US,1697597060
223,yuzhno-kurilsk,44.0306,145.8556,10.76,75,17,6.82,RU,1697597060
224,sao joao batista,-27.2761,-48.8494,20.37,98,100,0.89,BR,1697597061
225,qarqaraly,49.4058,75.4742,8.21,34,8,1.65,KZ,1697597061
226,poxoreo,-15.8372,-54.3892,28.05,35,63,1.43,BR,1697597061
227,lautoka,-17.6167,177.4667,27.92,69,20,6.17,FJ,1697597061
228,turpan,42.9333,89.1667,15.98,23,0,0.54,CN,1697597062
229,dabou,5.3256,-4.3769,24.18,92,71,1.84,CI,1697597062
230,pisco,-13.7,-76.2167,19.03,88,0,6.69,PE,1697597062
231,port saint john's,-31.6229,29.5448,15.88,84,3,4.03,ZA,1697597062
232,pago pago,-14.2781,-170.7025,29.55,70,75,9.26,AS,1697597063
233,kill devil hills,36.0307,-75.676,15.01,75,0,1.54,US,1697597063
234,cavalaire-sur-mer,43.174,6.5272,19.9,87,100,7.51,FR,1697597063
235,kambove,-10.8764,26.5969,16.41,97,100,0.95,CD,1697597063
236,carnarvon,-24.8667,113.6333,29.3,36,0,7.66,AU,1697597064
237,san juan de miraflores,-12.1629,-76.9635,20.09,80,97,3.64,PE,1697597064
238,kapa'a,22.0752,-159.319,28.99,71,100,2.57,US,1697597064
239,pangkalpinang,-2.1333,106.1333,30.16,63,99,4.26,ID,1697597064
240,maintirano,-18.0667,44.0167,25.96,80,95,1.3,MG,1697597065
241,paracuru,-3.41,-39.0306,26.73,78,98,6.32,BR,1697597065
242,sawakin,19.1059,37.3321,27.33,72,27,2.71,SD,1697597065
243,nantucket,41.2835,-70.0995,12.23,88,0,0.0,US,1697597065
244,saint-francois,46.4154,3.9054,15.36,94,0,1.54,FR,1697597066
245,rio grande,-32.035,-52.0986,12.19,79,4,5.95,BR,1697596797
246,ust-nera,64.5667,143.2,-15.44,85,98,1.34,RU,1697597066
247,lawas,13.764,121.0566,30.55,66,68,5.15,PH,1697597067
248,keflavik,64.0049,-22.5624,10.24,87,100,16.46,IS,1697597067
249,labrador city,52.9463,-66.9114,1.95,80,100,3.09,CA,1697596810
250,puerto ayora,-0.7393,-90.3518,24.19,94,20,0.45,EC,1697597021
251,cotnari,47.35,26.9833,4.81,73,48,1.47,RO,1697597067
252,smithfield,41.922,-71.5495,12.32,95,100,0.45,US,1697597068
253,acapulco de juarez,16.8634,-99.8901,28.9,79,100,3.6,MX,1697596795
254,pasni,25.2631,63.471,26.63,77,94,0.96,PK,1697597049
255,vrangel',42.7297,133.0839,14.36,83,100,3.13,RU,1697597068
256,robertsport,6.7533,-11.3686,25.21,87,95,1.8,LR,1697597068
257,waat,51.1454,6.4958,7.72,86,100,4.12,DE,1697597069
258,novodvinsk,64.4165,40.8122,3.77,78,100,4.78,RU,1697597069
259,imperatriz,-5.5264,-47.4917,26.42,53,21,1.25,BR,1697596874
260,filadelfia,39.9523,-75.1638,13.12,87,100,0.0,US,1697596823
261,vilyuchinsk,52.9306,158.4028,7.18,96,100,1.92,RU,1697597070
262,bardai,11.65,7.2333,23.3,69,96,1.85,NG,1697597070
263,kununurra,-15.7667,128.7333,34.99,14,0,4.63,AU,1697597070
264,utrik,11.2278,169.8474,28.03,80,87,7.91,MH,1697597054
265,bikenibeu village,1.3673,173.1241,29.98,79,75,5.14,KI,1697597070
266,nadi,-17.8,177.4167,28.0,69,20,6.17,FJ,1697597071
267,ha giang,22.8333,104.9833,29.46,57,50,1.26,VN,1697597071
268,papao,-17.75,-149.55,27.82,83,96,7.41,PF,1697597071
269,laguna,38.421,-121.4238,24.62,54,0,0.0,US,1697597071
270,martapura,-3.4167,114.85,31.05,66,20,2.57,ID,1697597072
271,atar,20.5169,-13.0499,28.93,22,40,0.63,MR,1697597072
272,san salvador de jujuy,-24.1946,-65.2971,16.74,90,100,0.36,AR,1697596858
273,celestun,20.8667,-90.4,23.81,60,59,4.61,MX,1697597072
274,taltal,-25.4,-70.4833,17.08,79,98,0.7,CL,1697597017
275,hegang,47.4,130.3667,11.49,46,100,2.53,CN,1697597073
276,la passe,45.5549,-0.8967,20.13,77,84,9.95,FR,1697597073
277,bayganin,48.6947,55.8742,4.17,77,76,3.56,KZ,1697597073
278,mongu,-15.2484,23.1274,18.8,85,58,1.58,ZM,1697597073
279,san agustin de valle fertil,-30.6335,-67.4682,14.28,67,58,4.3,AR,1697597074
280,mount pearl,47.5166,-52.7813,4.36,90,100,0.45,CA,1697597074
281,nar'yan-mar,67.6713,53.087,1.17,89,100,4.02,RU,1697597074
282,saint-louis du nord,19.9333,-72.7167,28.21,78,12,4.09,HT,1697597074
283,petropavlovsk-kamchatsky,53.0452,158.6483,6.36,88,100,5.0,RU,1697597075
284,gemerek,39.1834,36.0719,10.1,73,31,0.84,TR,1697597075
285,yanam,16.7333,82.2167,29.71,59,8,1.56,IN,1697597075
286,hinton,53.4001,-117.5857,6.08,78,86,2.53,CA,1697597075
287,al mawsil al jadidah,36.3346,43.0978,20.93,43,0,0.97,IQ,1697597075
288,akureyri,65.6835,-18.0878,5.0,87,97,5.12,IS,1697597076
289,heroica caborca,30.7167,-112.15,30.26,21,4,2.78,MX,1697597076
290,rongelap,11.1635,166.8941,28.42,75,19,6.03,MH,1697597076
291,new norfolk,-42.7826,147.0587,24.28,21,8,1.49,AU,1697597076
292,westport,41.1415,-73.3579,12.72,82,0,2.06,US,1697597077
293,sale,34.0389,-6.8166,22.38,88,40,3.6,MA,1697597077
294,mountain home,43.133,-115.6912,15.79,47,0,3.6,US,1697596917
295,baiyin,36.5583,104.2081,8.01,61,100,2.03,CN,1697597077
296,tralee,52.2704,-9.7026,12.72,93,100,7.63,IE,1697597078
297,namibe,-15.1961,12.1522,17.24,82,39,1.36,AO,1697597078
298,barguzin,53.6167,109.6167,4.21,93,87,2.24,RU,1697597078
299,izazi,-7.2,35.7333,22.68,63,65,1.52,TZ,1697597078
300,howard springs,-12.497,131.047,34.95,21,6,2.37,AU,1697597079
301,hammerfest,70.6634,23.6821,0.25,93,40,2.57,NO,1697596975
302,puerto rosario,-24.45,-57.0833,28.04,64,41,3.81,PY,1697597079
303,ceres,37.5949,-120.9577,23.97,57,0,0.0,US,1697596806
304,ben lomond,37.0891,-122.0863,21.91,78,4,1.9,US,1697597079
305,susuman,62.7833,148.1667,-13.9,62,28,0.45,RU,1697597080
306,aberystwyth,52.4155,-4.0829,10.39,79,100,12.39,GB,1697597080
307,igrim,63.1906,64.4162,7.23,84,84,4.02,RU,1697597080
308,isangel,-19.55,169.2667,26.91,68,80,4.21,VU,1697597080
309,guerrero negro,27.9769,-114.0611,20.85,78,28,5.44,MX,1697597081
310,aswan,24.0934,32.907,20.61,42,0,3.6,EG,1697597081
311,male,4.1748,73.5089,27.97,78,20,3.6,MV,1697597082
312,turtas,58.9417,69.1325,8.73,77,6,4.76,RU,1697597082
313,smithers,54.7804,-127.1743,8.18,87,75,4.12,CA,1697597083
314,vainode,56.4333,21.8667,8.99,86,99,6.03,LV,1697597083
315,la'ie,21.6477,-157.9253,29.98,71,46,1.79,US,1697597083
316,tofol,5.3248,163.0078,27.88,83,75,4.12,FM,1697597056
317,nikolayevsk-on-amure,53.1406,140.73,8.61,67,77,1.8,RU,1697597084
318,amalapuram,16.5833,82.0167,29.5,60,9,1.52,IN,1697597084
319,kourou,5.1552,-52.6478,25.03,86,73,2.84,GF,1697597084
320,tazovsky,67.4667,78.7,5.17,96,100,5.36,RU,1697597084
321,suva,-18.1416,178.4415,26.71,74,75,5.14,FJ,1697597085
322,pervari,37.9357,42.5493,12.95,77,42,1.74,TR,1697597085
323,nizhnesortymskiy,62.4397,71.7603,6.14,93,2,7.28,RU,1697597085
324,hithadhoo,-0.6,73.0833,27.24,77,13,5.66,MV,1697597085
325,taguatinga,-12.3857,-46.5711,25.88,23,3,2.01,BR,1697597086
326,egilsstadir,65.2653,-14.3948,2.95,93,75,3.09,IS,1697597086
327,murzuq,25.9155,13.9184,20.95,23,0,2.39,LY,1697597086
328,i-n-salah,27.1935,2.4607,25.65,18,1,2.39,DZ,1697597086
329,belyy yar,53.6039,91.3903,8.94,76,40,2.0,RU,1697597087
330,butterworth,5.3991,100.3638,30.59,79,20,2.24,MY,1697597087
331,vera cruz,-12.6333,-41.0333,23.76,78,2,0.85,BR,1697597087
332,humaita,-7.5061,-63.0208,27.38,56,96,0.1,BR,1697597087
333,arkhangel'sk,64.5401,40.5433,3.96,78,100,5.18,RU,1697597053
334,kalach-na-donu,48.691,43.5264,3.0,68,13,3.32,RU,1697597088
335,pangai,-19.8,-174.35,25.06,69,75,9.77,TO,1697597088
336,nyakahanga,-1.6033,31.1414,14.91,89,70,0.78,TZ,1697597088
337,galliano,29.4422,-90.2992,15.56,77,0,0.0,US,1697597088
338,eaglehawk,-36.7333,144.25,21.31,40,0,2.79,AU,1697597089
339,gadzhiyevo,69.2551,33.3362,2.34,68,99,6.48,RU,1697597089
340,belmonte,-15.8631,-38.8828,22.65,80,60,1.93,BR,1697597089
341,mayya,61.7333,130.2811,-6.38,81,100,1.68,RU,1697597089
342,argo,37.6333,22.7333,18.5,84,36,1.51,GR,1697597089
343,dolores,-36.3132,-57.6792,4.41,76,0,2.58,AR,1697597090
344,vanimo,-2.6741,141.3028,29.95,64,87,2.87,PG,1697597090
345,emerald,-23.5333,148.1667,28.52,37,22,5.17,AU,1697597090
346,berezovyy,51.6667,135.7,8.81,62,92,1.55,RU,1697597090
347,sidi qacem,34.2215,-5.7078,23.12,85,5,2.04,MA,1697597091
348,aykhal,66.0,111.5,-11.07,93,99,4.92,RU,1697597091
349,ghat,24.9647,10.1728,24.32,23,9,1.01,LY,1697597030
350,sambava,-14.2667,50.1667,22.21,80,48,3.21,MG,1697597091
351,ta`u,-14.2336,-169.5144,25.97,83,91,9.1,AS,1697597092
352,homer,59.6425,-151.5483,9.94,85,75,3.58,US,1697597040
353,quellon,-43.1167,-73.6167,8.44,95,98,2.94,CL,1697597092
354,fada,9.5667,8.3,20.25,89,100,1.58,NG,1697597092
355,merrill,45.1805,-89.6835,10.58,97,0,0.0,US,1697597093
356,ishigaki,24.3448,124.1572,28.07,61,40,4.63,JP,1697597093
357,naze,28.3667,129.4833,23.51,54,0,2.54,JP,1697597079
358,yenifakili,39.2114,35.0004,12.61,62,70,1.23,TR,1697597093
359,corner brook,48.9667,-57.9484,3.09,90,33,1.03,CA,1697597093
360,champerico,14.3,-91.9167,26.3,81,98,1.51,GT,1697597094
361,bonthe,7.5264,-12.505,24.0,93,99,1.94,SL,1697597094
362,east london,-33.0153,27.9116,15.48,83,0,4.54,ZA,1697597005
363,enshi,30.3,109.4833,23.61,61,11,0.44,CN,1697597094
364,leutkirch,47.825,10.0167,5.14,84,100,1.3,DE,1697597095
365,yingchuan,34.1628,113.4639,23.84,44,100,3.28,CN,1697597095
366,ulanhot,46.0833,122.0833,12.54,24,40,5.93,CN,1697597095
367,angaur state,6.906,134.13,28.16,73,19,1.1,PW,1697597095
368,trittau,53.6167,10.4,2.22,95,52,1.45,DE,1697597096
369,tezu,27.9167,96.1667,26.18,54,30,1.35,IN,1697597096
370,pandan,14.0453,124.1694,29.27,74,45,3.86,PH,1697597096
371,tres arroyos,-38.3739,-60.2798,6.98,60,0,4.34,AR,1697597096
372,meadow lakes,61.6247,-149.6011,7.69,77,0,0.0,US,1697597096
373,almus,40.3758,36.9044,9.46,83,100,0.44,TR,1697597097
374,seoni,22.0833,79.5333,24.32,63,6,1.82,IN,1697597097
375,south hedland,-20.4089,118.5983,38.96,7,0,4.63,AU,1697597097
376,camiri,-20.05,-63.5167,20.92,85,86,0.72,BO,1697597097
377,kyzyl-mazhalyk,51.1333,90.6,4.95,49,19,0.89,RU,1697597098
378,al kharijah,25.4514,30.5464,20.16,45,0,3.16,EG,1697597068
379,reynoldsburg,39.9548,-82.8121,11.38,82,100,2.06,US,1697597092
380,plettenberg bay,-34.0527,23.3716,16.22,72,0,3.08,ZA,1697597098
381,sergeyevka,53.88,67.4158,8.85,62,0,4.45,KZ,1697597098
382,tomatlan,19.9333,-105.25,24.85,93,97,0.58,MX,1697597099
383,saddiqabad,28.3062,70.1307,23.76,51,0,5.38,PK,1697597099
384,salmas,38.1973,44.7653,11.31,67,45,0.26,IR,1697597099
385,lebu,-37.6167,-73.65,10.41,90,7,4.84,CL,1697597099
386,henderson,36.0397,-114.9819,28.83,16,0,4.63,US,1697596894
387,puerto aysen,-45.4,-72.7,6.77,99,99,0.68,CL,1697597100
388,nelson bay,-32.7167,152.15,21.16,58,34,4.47,AU,1697597100
389,yichun,47.7,128.9,9.46,46,100,4.16,CN,1697597100
390,najaf,31.9985,44.3398,18.88,52,0,2.06,IQ,1697597100
391,dhuusamarreeb,5.535,46.3861,25.65,79,76,4.87,SO,1697597101
392,prince rupert,54.3161,-130.3201,13.05,83,100,19.03,CA,1697596809
393,margate,51.3813,1.3862,12.61,77,100,1.79,GB,1697597101
394,waitara,-38.925,174.25,17.22,80,14,1.43,NZ,1697597101
395,kudahuvadhoo,2.6708,72.8944,27.85,74,44,5.25,MV,1697597102
396,saint-denis,48.9167,2.3333,11.88,78,0,5.14,FR,1697597102
397,thurso,58.5927,-3.5259,10.14,83,97,9.16,GB,1697597102
398,laminusa,5.5549,120.9136,28.26,76,26,1.83,PH,1697597102
399,urengoy,65.9667,78.3667,4.5,95,100,4.92,RU,1697597103
400,punta alta,-38.8759,-62.0736,13.93,41,0,8.13,AR,1697597103
401,stepnoye,51.4,46.8667,5.03,79,15,5.27,RU,1697597103
402,zeerust,-25.5369,26.0751,12.67,70,0,2.24,ZA,1697597103
403,pawai,24.2667,80.1667,24.56,61,0,1.17,IN,1697597104
404,bac lieu,9.285,105.7244,29.78,71,67,4.77,VN,1697597104
405,labytnangi,66.6572,66.4183,1.4,100,100,1.89,RU,1697597104
406,palikir - national government center,6.9248,158.1611,30.47,74,75,3.09,FM,1697596906
407,taungoo,18.9333,96.4333,28.18,77,19,1.37,MM,1697597105
408,nemuro,43.3236,145.575,14.27,59,33,5.54,JP,1697597105
409,kasongo-lunda,-6.4667,16.8167,21.11,99,100,0.14,CD,1697597106
410,chikwawa,-16.0335,34.8009,22.97,92,100,0.74,MW,1697597106
411,bay city,43.5945,-83.8889,9.12,82,100,2.57,US,1697597107
412,alice springs,-23.7,133.8833,26.75,12,0,5.14,AU,1697596814
413,tabou,4.423,-7.3528,24.45,91,81,0.5,CI,1697597107
414,pontian kechil,1.4866,103.3896,31.17,68,100,3.52,MY,1697597108
415,san ignacio,17.1561,-89.0714,23.08,83,20,2.06,BZ,1697597108
416,argamasilla de calatrava,38.7384,-4.015,16.86,81,96,7.85,ES,1697597108
417,camabatela,-8.1881,15.375,18.12,98,99,1.66,AO,1697597108
418,grand-bourg,15.8835,-61.3148,24.97,72,11,5.76,GP,1697597109
419,pizarro,4.9533,-77.366,26.38,84,100,1.03,CO,1697597084
420,dubreka,9.7911,-13.5233,25.2,92,97,1.31,GN,1697597109
421,kokopo,-4.352,152.2633,29.52,68,39,1.54,PG,1697597109
422,mweka,-4.85,21.5667,20.43,99,98,0.6,CD,1697597110
423,tayshet,55.9342,98.0044,5.18,82,94,3.14,RU,1697597110
424,moranbah,-22.0016,148.0466,29.42,34,10,7.75,AU,1697597110
425,jaisalmer,26.9147,70.9181,24.9,56,0,5.33,IN,1697597111
426,jianshui,23.6363,102.8264,23.01,68,18,1.57,CN,1697597111
427,kristinestad,62.2743,21.376,1.68,80,100,4.15,FI,1697597111
428,puerto lempira,15.2667,-83.7667,25.86,88,100,5.38,HN,1697597111
429,sihanoukville,10.6093,103.5296,28.97,79,40,1.03,KH,1697597112
430,picos,-7.0769,-41.4669,24.77,38,99,1.34,BR,1697597112
431,bouca,6.5105,18.2733,21.46,94,95,0.79,CF,1697597112
432,saint-joseph,-21.3667,55.6167,22.48,77,100,1.68,RE,1697597112
433,amga,60.8953,131.9608,-3.34,52,100,3.13,RU,1697597113
434,guatire,10.4762,-66.5427,22.24,95,26,0.85,VE,1697597113
435,andkhoy,36.9529,65.1238,19.57,38,66,4.4,AF,1697597113
436,krasnyy yar,46.5331,48.3456,2.96,57,98,2.56,RU,1697597113
437,alakurtti,66.9672,30.3491,-3.51,89,28,2.54,RU,1697597115
438,xudat,41.631,48.681,11.24,63,54,1.17,AZ,1697597115
439,okha,53.5739,142.9478,6.77,86,100,2.77,RU,1697597115
440,itoman,26.1247,127.6694,27.43,53,40,3.09,JP,1697597115
441,yangambi,0.8102,24.4336,20.42,99,36,0.48,CD,1697597115
442,bandarbeyla,9.4942,50.8122,26.44,81,8,0.29,SO,1697597116
443,mhamid,29.82,-5.72,23.48,34,4,1.61,MA,1697597116
444,alpine,32.835,-116.7664,21.48,70,0,2.06,US,1697597116
445,upata,8.0086,-62.3989,22.6,90,19,1.36,VE,1697597117
446,riyadh,24.6877,46.7219,22.08,62,0,2.86,SA,1697596819
447,portland,45.5234,-122.6762,16.1,89,40,2.06,US,1697596551
448,chiredzi,-21.05,31.6667,17.61,75,92,2.72,ZW,1697597118
449,balqash,46.8481,74.995,5.33,65,0,6.0,KZ,1697597118
450,pimentel,-6.8367,-79.9342,20.16,83,0,8.23,PE,1697597118
451,porto novo,6.4965,2.6036,22.9,90,72,0.81,BJ,1697597118
452,le vauclin,14.5452,-60.8388,28.03,78,0,2.57,MQ,1697597118
453,dili,-8.5586,125.5736,29.05,57,34,4.77,TL,1697597120
454,seydi,39.4816,62.9137,17.87,23,84,4.06,TM,1697597120
455,es castell,39.8795,4.2854,23.38,94,0,2.57,ES,1697597120
456,al buraymi,24.2509,55.7931,24.68,73,0,3.09,OM,1697597120
457,streetsboro,41.2392,-81.3459,9.29,91,100,0.0,US,1697596980
458,ivot,53.6756,34.1872,3.76,79,99,4.98,RU,1697597121
459,bolkow,50.922,16.1011,4.65,92,0,1.78,PL,1697597121
460,marechal candido rondon,-24.5561,-54.0567,24.23,64,92,4.99,BR,1697597121
461,parral,26.9333,-105.6667,15.71,46,0,3.17,MX,1697597122
462,santa ana de yacuma,-13.75,-65.4333,28.4,52,52,2.43,BO,1697597122
463,monze,-16.2833,27.4833,19.67,87,6,1.94,ZM,1697597044
464,beni saf,35.301,-1.3823,21.16,77,66,3.32,DZ,1697597033
465,kiffa,16.6166,-11.4045,31.11,39,3,3.85,MR,1697597122
466,boca chica,18.4537,-69.6111,26.04,88,40,0.0,DO,1697597123
467,hasaki,35.7333,140.8333,22.22,57,88,4.08,JP,1697597123
468,shelui,-4.3667,34.2,23.63,57,94,1.86,TZ,1697597123
469,la rinconada,37.4873,-5.9826,20.1,93,75,4.63,ES,1697597123
470,imbituba,-28.24,-48.6703,20.5,89,100,4.37,BR,1697596922
471,ofunato,39.0717,141.7167,19.06,52,0,3.58,JP,1697597124
472,newport,51.5877,-2.9984,12.12,78,100,7.15,GB,1697596868
473,moyynkum,44.2914,72.9469,12.82,44,42,2.3,KZ,1697597124
474,cidade velha,14.9167,-23.6167,25.26,88,20,2.57,CV,1697597087
475,malango,-2.9627,119.9001,27.96,60,66,2.19,ID,1697597125
476,hirara,24.8,125.2833,28.15,54,40,6.17,JP,1697597125
477,bridgetown,13.1,-59.6167,28.27,78,75,6.69,BB,1697596850
478,culebra,18.303,-65.301,28.97,74,28,6.37,PR,1697597125
479,acajutla,13.5928,-89.8275,26.79,65,97,3.2,SV,1697597088
480,pomichna,48.2422,31.4158,3.4,66,6,1.65,UA,1697597126
481,wabag,-5.4781,143.7021,17.22,89,78,1.37,PG,1697597126
482,chiroqchi,39.0336,66.5722,17.88,35,100,2.85,UZ,1697597126
483,gumdag,39.2061,54.5906,15.8,53,100,0.39,TM,1697597126
484,bulata,9.8599,122.4016,29.22,72,87,3.13,PH,1697597127
485,pedernales,18.0384,-71.744,27.54,78,1,1.82,DO,1697597127
486,mirpur khas,25.5251,69.0159,27.83,53,0,5.43,PK,1697597042
487,tutong,4.8,114.65,30.3,69,24,1.32,BN,1697597127
488,baoqing,46.3317,132.2111,13.21,34,100,4.14,CN,1697597127
489,carbonear,47.7332,-53.2148,5.08,87,100,2.68,CA,1697596844
490,bargaal,11.2864,51.0773,26.59,82,38,1.3,SO,1697597128
491,quepos,9.4236,-84.1652,26.44,84,100,1.1,CR,1697597128
492,nova sintra,14.8667,-24.7167,25.17,71,1,2.43,CV,1697597128
493,eduardo castex,-35.915,-64.2945,10.76,28,4,4.66,AR,1697597129
494,key west,24.5557,-81.7826,23.0,57,20,6.69,US,1697597129
495,arzua,42.9333,-8.15,16.48,97,100,4.39,ES,1697597129
496,hassi messaoud,31.6804,6.0729,24.38,24,2,4.27,DZ,1697597129
497,basoko,1.2391,23.616,21.26,94,92,0.31,CD,1697597129
498,yacuiba,-22.038,-63.6797,19.59,88,100,2.42,BO,1697597130
499,durban,-29.8579,31.0292,15.51,83,79,2.97,ZA,1697597130
500,santona,43.4439,-3.4576,24.62,77,99,5.59,ES,1697597130
501,marion,39.7684,-86.1555,10.9,85,40,3.6,US,1697597130
502,paragominas,-2.9667,-47.4833,22.84,97,100,1.19,BR,1697597131
503,namie,37.4833,141.0,23.17,57,0,3.11,JP,1697597131
504,silver springs shores,29.1044,-82.0206,13.85,82,0,1.82,US,1697597131
505,meulaboh,4.1363,96.1285,27.88,73,87,1.64,ID,1697597131
506,sabinanigo,42.5192,-0.3661,16.18,92,78,2.8,ES,1697597132
507,montecristi,-1.05,-80.6667,23.9,83,20,5.14,EC,1697597133
508,kapuskasing,49.4169,-82.4331,4.05,100,0,1.54,CA,1697597133
509,riberalta,-10.9833,-66.1,26.0,68,26,1.04,BO,1697597133
510,ancud,-41.8697,-73.8203,8.14,89,27,1.41,CL,1697597134
511,mabopane,-25.4977,28.1007,14.81,69,0,2.78,ZA,1697597134
512,porto murtinho,-21.6989,-57.8825,31.71,30,44,3.5,BR,1697597134
513,akjoujt,19.6969,-14.4164,28.99,24,30,1.89,MR,1697597134
514,mata-utu,-13.2816,-176.1745,27.17,79,100,8.74,WF,1697597134
515,yardimli,38.9206,48.2372,9.66,98,99,2.67,AZ,1697597135
516,lazaro cardenas,17.9583,-102.2,25.72,88,100,0.38,MX,1697597078
517,lamu,-2.2717,40.902,26.12,89,100,4.32,KE,1697597135
518,ji'an,27.1172,114.9793,27.92,46,0,1.95,CN,1697597135
519,balcesti,44.6167,23.95,6.08,52,100,2.61,RO,1697597136
520,choele choel,-39.2667,-65.6833,17.33,24,0,5.88,AR,1697597136
521,dryden,49.7833,-92.7503,11.16,66,100,3.6,CA,1697597136
522,nuuk,64.1835,-51.7216,-4.66,63,0,8.23,GL,1697597136
523,saacow,1.6279,42.4407,25.27,86,38,4.54,SO,1697597137
524,vinh long,10.25,105.9667,30.99,65,100,2.79,VN,1697597137
525,barah,13.7,30.3667,25.58,18,63,4.16,SD,1697597137
526,sao joao da barra,-21.6403,-41.0511,23.56,91,100,2.34,BR,1697597137
527,villa emilio carranza,19.9667,-96.6,21.49,77,66,2.87,MX,1697597123
528,fortuna,40.5982,-124.1573,14.64,95,75,0.0,US,1697596844
529,katsuren-haebaru,26.3369,127.8719,27.43,52,40,3.6,JP,1697597138
530,tamanrasset,22.785,5.5228,20.95,18,0,2.57,DZ,1697597138
531,zouerate,22.7187,-12.4521,28.15,22,34,2.35,MR,1697597139
532,neryungri,56.6709,124.6491,-2.09,89,100,5.15,RU,1697597139
533,puerto santa,-8.9906,-78.6456,18.83,90,65,4.83,PE,1697597139
534,krasnyy chikoy,50.3643,108.7512,0.69,84,100,1.79,RU,1697597139
535,bosaso,11.2842,49.1816,27.2,73,7,1.0,SO,1697597139
536,lodja,-3.4833,23.4333,20.45,99,98,0.46,CD,1697597140
537,coquimbo,-29.9533,-71.3436,13.85,88,100,2.06,CL,1697597140
538,kukuna,9.4,-12.6667,22.87,96,69,0.59,SL,1697597140
539,soio,-6.1349,12.3689,24.68,89,100,2.62,AO,1697597140
540,yinchuan,38.4681,106.2731,13.96,41,100,0.15,CN,1697597141
541,simenqian,27.4872,110.8861,27.27,37,0,1.6,CN,1697597141
542,aoulef,26.9667,1.0833,25.99,17,5,2.85,DZ,1697597141
543,rocafuerte,-0.9167,-80.4333,24.93,82,43,1.74,EC,1697597141
544,alo,7.4178,6.7371,22.87,94,99,0.89,NG,1697597142
545,brookings,44.3114,-96.7984,15.0,58,0,7.72,US,1697596834
546,vuktyl,63.8567,57.3094,6.73,81,69,4.47,RU,1697597142
547,china,25.7,-99.2333,21.51,34,34,4.38,MX,1697597142
548,nabire,-3.3667,135.4833,30.18,65,85,2.06,ID,1697597143
549,yelizovo,53.1873,158.3805,7.11,93,100,5.0,RU,1697597143
550,iskateley,67.6803,53.1512,1.12,89,100,4.02,RU,1697597143
551,saint croix,17.7397,-64.7388,27.25,85,0,1.79,VI,1697597143
552,harstad,68.799,16.5293,1.0,93,45,6.71,NO,1697597144
553,igarka,67.4667,86.5833,0.27,98,100,9.13,RU,1697597144
554,zhangye,38.9342,100.4517,4.04,90,100,7.04,CN,1697597144
555,tiszafoldvar,46.9833,20.25,1.17,100,0,0.0,HU,1697597144
556,hastings,50.8552,0.5729,12.18,39,100,9.32,GB,1697597144
557,roma,43.2128,-75.4557,10.32,81,100,0.0,US,1697596880
558,pingxiang,27.6167,113.85,28.12,42,0,1.22,CN,1697597145
559,yigo village,13.5361,144.8886,29.3,83,100,7.72,GU,1697597145
560,tonj,7.2737,28.6822,21.44,90,94,1.48,SS,1697597146
561,puente alto,-33.6167,-70.5833,17.36,45,62,0.84,CL,1697596915
